street_name,town,lat,lng
ADMIRALTY DR,SEMBAWANG,1.450685651,103.817133
ADMIRALTY LINK,SEMBAWANG,1.455342003,103.8175415
AH HOOD RD,KALLANG/WHAMPOA,1.327808684,103.8468005
ALJUNIED AVE 2,GEYLANG,1.32109794,103.8870987
ALJUNIED CRES,GEYLANG,1.320532222,103.8857354
ALJUNIED RD,GEYLANG,1.322421084,103.8814805
ANCHORVALE CRES,SENGKANG,1.398762529,103.8908759
ANCHORVALE DR,SENGKANG,1.39070393,103.889485
ANCHORVALE LANE,SENGKANG,1.392199289,103.8842804
ANCHORVALE LINK,SENGKANG,1.392390863,103.8900395
ANCHORVALE RD,SENGKANG,1.393461584,103.8872008
ANCHORVALE ST,SENGKANG,1.397482763,103.8891036
ANG MO KIO AVE 1,ANG MO KIO,1.36381724,103.8474201
ANG MO KIO AVE 10,ANG MO KIO,1.367007392,103.8564735
ANG MO KIO AVE 2,ANG MO KIO,1.372923411,103.8332125
ANG MO KIO AVE 3,ANG MO KIO,1.369191111,103.8573054
ANG MO KIO AVE 4,ANG MO KIO,1.376413907,103.8393635
ANG MO KIO AVE 5,ANG MO KIO,1.376070036,103.8555767
ANG MO KIO AVE 6,ANG MO KIO,1.376156326,103.8451263
ANG MO KIO AVE 8,ANG MO KIO,1.370897285,103.848654
ANG MO KIO AVE 9,ANG MO KIO,1.384198684,103.8437162
ANG MO KIO ST 11,ANG MO KIO,1.371182065,103.8359091
ANG MO KIO ST 21,ANG MO KIO,1.369067791,103.8348713
ANG MO KIO ST 31,ANG MO KIO,1.36615254,103.8480775
ANG MO KIO ST 32,ANG MO KIO,1.364749837,103.8503657
ANG MO KIO ST 44,ANG MO KIO,1.366605492,103.8575527
ANG MO KIO ST 51,ANG MO KIO,1.37130534,103.8541354
ANG MO KIO ST 52,ANG MO KIO,1.37266463,103.8533258
ANG MO KIO ST 61,ANG MO KIO,1.38107923,103.8412277
BAIN ST,CENTRAL AREA,1.29726809,103.8540351
BALAM RD,GEYLANG,1.330081766,103.8866261
BANGKIT RD,BUKIT PANJANG,1.377763979,103.774142
BEACH RD,KALLANG/WHAMPOA,1.299604533,103.8592229
BEDOK CTRL,BEDOK,1.326025348,103.9335868
BEDOK NTH AVE 1,BEDOK,1.328525862,103.9267382
BEDOK NTH AVE 2,BEDOK,1.330849069,103.9306893
BEDOK NTH AVE 3,BEDOK,1.331472862,103.934313
BEDOK NTH AVE 4,BEDOK,1.335043879,103.9435632
BEDOK NTH RD,BEDOK,1.330873666,103.9304481
BEDOK NTH ST 1,BEDOK,1.327439966,103.9307388
BEDOK NTH ST 2,BEDOK,1.32887107,103.9370683
BEDOK NTH ST 3,BEDOK,1.333483169,103.9275974
BEDOK NTH ST 4,BEDOK,1.332327091,103.9398126
BEDOK RESERVOIR CRES,BEDOK,1.33646001,103.9204707
BEDOK RESERVOIR RD,BEDOK,1.337286995,103.9215157
BEDOK RESERVOIR VIEW,BEDOK,1.337019465,103.9367814
BEDOK STH AVE 1,BEDOK,1.317932563,103.9328377
BEDOK STH AVE 2,BEDOK,1.3225481,103.9375648
BEDOK STH AVE 3,BEDOK,1.32092477,103.9455142
BEDOK STH RD,BEDOK,1.32059567,103.9377658
BENDEMEER RD,KALLANG/WHAMPOA,1.32089774,103.8653445
BEO CRES,BUKIT MERAH,1.289300638,103.8271176
BISHAN ST 11,BISHAN,1.346672864,103.8523193
BISHAN ST 12,BISHAN,1.346711442,103.8508991
BISHAN ST 13,BISHAN,1.349641097,103.8540644
BISHAN ST 22,BISHAN,1.35751626,103.8452375
BISHAN ST 23,BISHAN,1.357275315,103.8466089
BISHAN ST 24,BISHAN,1.356907973,103.8443758
BOON KENG RD,KALLANG/WHAMPOA,1.315542815,103.8646097
BOON LAY AVE,JURONG WEST,1.347261894,103.7103822
BOON LAY DR,JURONG WEST,1.344075816,103.7128144
BOON LAY PL,JURONG WEST,1.347152071,103.7129727
BOON TIONG RD,BUKIT MERAH,1.286681921,103.831444
BRIGHT HILL DR,BISHAN,1.357652186,103.8319847
BT BATOK CTRL,BUKIT BATOK,1.350524542,103.7497294
BT BATOK EAST AVE 3,BUKIT BATOK,1.344542387,103.758375
BT BATOK EAST AVE 4,BUKIT BATOK,1.349709668,103.758654
BT BATOK EAST AVE 5,BUKIT BATOK,1.353562022,103.7548806
BT BATOK EAST AVE 6,BUKIT BATOK,1.345426642,103.7573014
BT BATOK ST 11,BUKIT BATOK,1.350000338,103.7433344
BT BATOK ST 21,BUKIT BATOK,1.346618383,103.7534411
BT BATOK ST 22,BUKIT BATOK,1.344417451,103.7497686
BT BATOK ST 24,BUKIT BATOK,1.342974249,103.756779
BT BATOK ST 25,BUKIT BATOK,1.343762857,103.7609321
BT BATOK ST 31,BUKIT BATOK,1.358329486,103.7489424
BT BATOK ST 32,BUKIT BATOK,1.362487986,103.7483707
BT BATOK ST 33,BUKIT BATOK,1.362156215,103.7476264
BT BATOK ST 34,BUKIT BATOK,1.364583546,103.7499312
BT BATOK ST 51,BUKIT BATOK,1.355863164,103.7505648
BT BATOK ST 52,BUKIT BATOK,1.356390938,103.7534251
BT BATOK WEST AVE 2,BUKIT BATOK,1.358114396,103.7472612
BT BATOK WEST AVE 4,BUKIT BATOK,1.362767634,103.7469993
BT BATOK WEST AVE 5,BUKIT BATOK,1.358786754,103.7422624
BT BATOK WEST AVE 6,BUKIT BATOK,1.35366689,103.7429169
BT BATOK WEST AVE 7,BUKIT BATOK,1.365429985,103.7488114
BT BATOK WEST AVE 8,BUKIT BATOK,1.355490279,103.7397878
BT BATOK WEST AVE 9,BUKIT BATOK,1.354981438,103.7418557
BT MERAH CTRL,BUKIT MERAH,1.283932126,103.8162972
BT MERAH LANE 1,BUKIT MERAH,1.285796965,103.8039701
BT MERAH VIEW,BUKIT MERAH,1.284181034,103.8218811
BT PANJANG RING RD,BUKIT PANJANG,1.386554207,103.7644644
BT PURMEI RD,BUKIT MERAH,1.272826782,103.8255881
BUANGKOK CRES,HOUGANG,1.383950004,103.8806898
BUANGKOK GREEN,HOUGANG,1.379634519,103.8827096
BUANGKOK LINK,HOUGANG,1.382819259,103.8820525
BUFFALO RD,CENTRAL AREA,1.306828507,103.8507406
C'WEALTH AVE,QUEENSTOWN,1.304769669,103.7955805
C'WEALTH AVE WEST,CLEMENTI,1.30807989,103.7884726
C'WEALTH CL,QUEENSTOWN,1.303789654,103.7989943
C'WEALTH CRES,QUEENSTOWN,1.307698572,103.8004235
C'WEALTH DR,QUEENSTOWN,1.298973465,103.7975814
CAMBRIDGE RD,KALLANG/WHAMPOA,1.315065133,103.848572
CANBERRA CRES,SEMBAWANG,1.446921054,103.8299128
CANBERRA LINK,SEMBAWANG,1.447044054,103.8275265
CANBERRA RD,SEMBAWANG,1.451734079,103.8206601
CANBERRA ST,SEMBAWANG,1.44838178,103.8323809
CANBERRA WALK,SEMBAWANG,1.447586329,103.8299432
CANTONMENT CL,BUKIT MERAH,1.275233944,103.8401659
CANTONMENT RD,CENTRAL AREA,1.276261484,103.8408539
CASHEW RD,BUKIT PANJANG,1.372014788,103.767716
CASSIA CRES,GEYLANG,1.310056071,103.8842081
CHAI CHEE AVE,BEDOK,1.32516201,103.9246797
CHAI CHEE DR,BEDOK,1.324231566,103.9192636
CHAI CHEE RD,BEDOK,1.325826618,103.9232182
CHAI CHEE ST,BEDOK,1.328618792,103.9226631
CHANDER RD,CENTRAL AREA,1.308833711,103.8518487
CHANGI VILLAGE RD,PASIR RIS,1.384764384,103.9874016
CHIN SWEE RD,CENTRAL AREA,1.2862913,103.8385359
CHOA CHU KANG AVE 1,CHOA CHU KANG,1.376811556,103.7449625
CHOA CHU KANG AVE 2,CHOA CHU KANG,1.378702022,103.7428207
CHOA CHU KANG AVE 3,CHOA CHU KANG,1.380948962,103.7424212
CHOA CHU KANG AVE 4,CHOA CHU KANG,1.38287293,103.7416159
CHOA CHU KANG AVE 5,CHOA CHU KANG,1.375729611,103.7393358
CHOA CHU KANG AVE 7,CHOA CHU KANG,1.375215342,103.7467141
CHOA CHU KANG CRES,CHOA CHU KANG,1.403441132,103.7480875
CHOA CHU KANG CTRL,CHOA CHU KANG,1.381257884,103.7467694
CHOA CHU KANG DR,CHOA CHU KANG,1.394243712,103.7463595
CHOA CHU KANG LOOP,CHOA CHU KANG,1.384766436,103.7454465
CHOA CHU KANG NTH 5,CHOA CHU KANG,1.392185815,103.746445
CHOA CHU KANG NTH 6,CHOA CHU KANG,1.396502809,103.7475334
CHOA CHU KANG NTH 7,CHOA CHU KANG,1.400961562,103.7471985
CHOA CHU KANG ST 51,CHOA CHU KANG,1.391443481,103.7430209
CHOA CHU KANG ST 52,CHOA CHU KANG,1.395010732,103.7439191
CHOA CHU KANG ST 53,CHOA CHU KANG,1.39130375,103.7473075
CHOA CHU KANG ST 54,CHOA CHU KANG,1.395038389,103.7490194
CHOA CHU KANG ST 62,CHOA CHU KANG,1.399064511,103.7467234
CHOA CHU KANG ST 64,CHOA CHU KANG,1.397779786,103.7500388
CIRCUIT RD,GEYLANG,1.326488332,103.8883414
CLARENCE LANE,QUEENSTOWN,1.29228052,103.8141013
CLEMENTI AVE 1,CLEMENTI,1.310292585,103.7685056
CLEMENTI AVE 2,CLEMENTI,1.311560781,103.7675998
CLEMENTI AVE 3,CLEMENTI,1.314043697,103.7634744
CLEMENTI AVE 4,CLEMENTI,1.318791063,103.7661094
CLEMENTI AVE 5,CLEMENTI,1.317396711,103.7680697
CLEMENTI AVE 6,CLEMENTI,1.323191477,103.7642327
CLEMENTI ST 11,CLEMENTI,1.322345314,103.7704586
CLEMENTI ST 12,CLEMENTI,1.322715466,103.7699552
CLEMENTI ST 13,CLEMENTI,1.323700458,103.7711795
CLEMENTI ST 14,CLEMENTI,1.323202594,103.7688008
CLEMENTI WEST ST 1,CLEMENTI,1.304818633,103.7666794
CLEMENTI WEST ST 2,CLEMENTI,1.303844368,103.7627712
COMPASSVALE BOW,SENGKANG,1.381624356,103.8936426
COMPASSVALE CRES,SENGKANG,1.397457411,103.8981839
COMPASSVALE DR,SENGKANG,1.388027733,103.8969022
COMPASSVALE LANE,SENGKANG,1.385811104,103.8983276
COMPASSVALE LINK,SENGKANG,1.383919796,103.8952547
COMPASSVALE RD,SENGKANG,1.390575789,103.8974222
COMPASSVALE ST,SENGKANG,1.39541804,103.8981047
COMPASSVALE WALK,SENGKANG,1.389686735,103.8985494
CORPORATION DR,JURONG WEST,1.333194265,103.7232386
CRAWFORD LANE,KALLANG/WHAMPOA,1.305302898,103.8624886
DAKOTA CRES,GEYLANG,1.306642859,103.8859651
DAWSON RD,QUEENSTOWN,1.29487286,103.8105579
DELTA AVE,BUKIT MERAH,1.292116381,103.8273343
DEPOT RD,BUKIT MERAH,1.281715639,103.8097983
DORSET RD,KALLANG/WHAMPOA,1.313637471,103.850291
DOVER CL EAST,QUEENSTOWN,1.303885233,103.786142
DOVER CRES,QUEENSTOWN,1.305861942,103.78272
DOVER RD,QUEENSTOWN,1.303881481,103.7794345
EDGEDALE PLAINS,PUNGGOL,1.398629186,103.9133489
EDGEFIELD PLAINS,PUNGGOL,1.401002283,103.9091504
ELIAS RD,PASIR RIS,1.377882413,103.9414209
EMPRESS RD,BUKIT TIMAH,1.317450415,103.8063116
EUNOS CRES,GEYLANG,1.321623158,103.9037725
EUNOS RD 5,GEYLANG,1.320700848,103.8960855
EVERTON PK,BUKIT MERAH,1.276993939,103.8392431
FAJAR RD,BUKIT PANJANG,1.384319487,103.7701484
FARRER PK RD,KALLANG/WHAMPOA,1.311735223,103.851004
FARRER RD,BUKIT TIMAH,1.317630189,103.8077622
FERNVALE LANE,SENGKANG,1.389579758,103.8710132
FERNVALE LINK,SENGKANG,1.394262583,103.8790449
FERNVALE RD,SENGKANG,1.394119314,103.8760449
FERNVALE ST,SENGKANG,1.398478411,103.8801824
FRENCH RD,KALLANG/WHAMPOA,1.30814608,103.861193
GANGSA RD,BUKIT PANJANG,1.378131593,103.7662355
GEYLANG BAHRU,KALLANG/WHAMPOA,1.32154463,103.8712166
GEYLANG EAST AVE 1,GEYLANG,1.317400145,103.8853632
GEYLANG EAST AVE 2,GEYLANG,1.317906819,103.8887329
GEYLANG EAST CTRL,GEYLANG,1.319148663,103.8868264
GEYLANG SERAI,GEYLANG,1.317113099,103.8973732
GHIM MOH LINK,QUEENSTOWN,1.309992763,103.7851481
GHIM MOH RD,QUEENSTOWN,1.311952319,103.7874347
GLOUCESTER RD,KALLANG/WHAMPOA,1.313126393,103.8520501
HAIG RD,GEYLANG,1.309564733,103.8977057
HAVELOCK RD,BUKIT MERAH,1.289196569,103.8359101
HENDERSON CRES,BUKIT MERAH,1.288945586,103.82171
HENDERSON RD,BUKIT MERAH,1.28060357,103.8176054
HO CHING RD,JURONG WEST,1.33471445,103.7241528
HOLLAND AVE,QUEENSTOWN,1.309213811,103.7950853
HOLLAND CL,QUEENSTOWN,1.307667689,103.7957456
HOLLAND DR,QUEENSTOWN,1.310104045,103.7929464
HOUGANG AVE 1,HOUGANG,1.354643641,103.8899098
HOUGANG AVE 10,HOUGANG,1.373313991,103.8918289
HOUGANG AVE 2,HOUGANG,1.368246479,103.8848413
HOUGANG AVE 3,HOUGANG,1.352885183,103.8908384
HOUGANG AVE 4,HOUGANG,1.371527685,103.8879496
HOUGANG AVE 5,HOUGANG,1.367560337,103.8963658
HOUGANG AVE 6,HOUGANG,1.376605882,103.8928927
HOUGANG AVE 7,HOUGANG,1.367548085,103.8991022
HOUGANG AVE 8,HOUGANG,1.374859185,103.8882409
HOUGANG AVE 9,HOUGANG,1.375194036,103.8811277
HOUGANG CTRL,HOUGANG,1.371336053,103.892616
HOUGANG ST 11,HOUGANG,1.352019305,103.8801392
HOUGANG ST 21,HOUGANG,1.358236634,103.8860542
HOUGANG ST 22,HOUGANG,1.355820586,103.8910013
HOUGANG ST 31,HOUGANG,1.36292016,103.8896527
HOUGANG ST 32,HOUGANG,1.363442786,103.894207
HOUGANG ST 51,HOUGANG,1.380337359,103.8878393
HOUGANG ST 52,HOUGANG,1.376815853,103.8893684
HOUGANG ST 61,HOUGANG,1.374862785,103.8863677
HOUGANG ST 91,HOUGANG,1.377231607,103.8822031
HOUGANG ST 92,HOUGANG,1.373310036,103.8800394
HOY FATT RD,BUKIT MERAH,1.288429756,103.8119298
INDUS RD,BUKIT MERAH,1.29160399,103.8277349
JELAPANG RD,BUKIT PANJANG,1.386134661,103.7671495
JELEBU RD,BUKIT PANJANG,1.379589133,103.7640758
JELLICOE RD,KALLANG/WHAMPOA,1.308129589,103.8622853
JLN BAHAGIA,KALLANG/WHAMPOA,1.32735034,103.8580046
JLN BATU,KALLANG/WHAMPOA,1.303089264,103.8833964
JLN BERSEH,CENTRAL AREA,1.307354711,103.8575198
JLN BT HO SWEE,BUKIT MERAH,1.287526038,103.8296666
JLN BT MERAH,BUKIT MERAH,1.2838168,103.8194052
JLN DAMAI,BEDOK,1.333680965,103.909418
JLN DUA,GEYLANG,1.309284124,103.8876539
JLN DUSUN,KALLANG/WHAMPOA,1.327939292,103.8439367
JLN KAYU,SENGKANG,1.396826052,103.8730067
JLN KLINIK,BUKIT MERAH,1.287863373,103.8287429
JLN KUKOH,CENTRAL AREA,1.288071338,103.8397185
JLN MA'MOR,KALLANG/WHAMPOA,1.328377114,103.8571883
JLN MEMBINA,BUKIT MERAH,1.283618512,103.8268322
JLN RAJAH,KALLANG/WHAMPOA,1.328112988,103.8512534
JLN RUMAH TINGGI,BUKIT MERAH,1.288007464,103.8094732
JLN TECK WHYE,CHOA CHU KANG,1.380149959,103.7577459
JLN TENAGA,BEDOK,1.332676591,103.9066074
JLN TENTERAM,KALLANG/WHAMPOA,1.327155632,103.8595204
JLN TIGA,GEYLANG,1.308134307,103.8845173
JOO CHIAT RD,GEYLANG,1.305639707,103.9053274
JOO SENG RD,TOA PAYOH,1.336555117,103.8818971
JURONG EAST AVE 1,JURONG EAST,1.344342216,103.7347408
JURONG EAST ST 13,JURONG EAST,1.337183561,103.7373051
JURONG EAST ST 21,JURONG EAST,1.337171691,103.7433629
JURONG EAST ST 24,JURONG EAST,1.342396083,103.7414691
JURONG EAST ST 31,JURONG EAST,1.347077838,103.7305042
JURONG EAST ST 32,JURONG EAST,1.347289545,103.7337491
JURONG WEST AVE 1,JURONG WEST,1.351267864,103.7213088
JURONG WEST AVE 3,JURONG WEST,1.35222629,103.7047506
JURONG WEST AVE 5,JURONG WEST,1.346866071,103.6970503
JURONG WEST CTRL 1,JURONG WEST,1.342797065,103.7053898
JURONG WEST CTRL 3,JURONG WEST,1.340755561,103.7062824
JURONG WEST ST 24,JURONG WEST,1.350384442,103.706914
JURONG WEST ST 25,JURONG WEST,1.354245967,103.703932
JURONG WEST ST 41,JURONG WEST,1.34850159,103.7232955
JURONG WEST ST 42,JURONG WEST,1.353375067,103.7216352
JURONG WEST ST 51,JURONG WEST,1.347875154,103.7205594
JURONG WEST ST 52,JURONG WEST,1.348344812,103.717785
JURONG WEST ST 61,JURONG WEST,1.338793091,103.6985286
JURONG WEST ST 62,JURONG WEST,1.340703668,103.7009939
JURONG WEST ST 64,JURONG WEST,1.341321565,103.7040069
JURONG WEST ST 65,JURONG WEST,1.339877806,103.7009692
JURONG WEST ST 71,JURONG WEST,1.342873161,103.6954959
JURONG WEST ST 72,JURONG WEST,1.346201339,103.6989557
JURONG WEST ST 73,JURONG WEST,1.347301368,103.6997562
JURONG WEST ST 74,JURONG WEST,1.34951018,103.6992649
JURONG WEST ST 75,JURONG WEST,1.34830619,103.6998715
JURONG WEST ST 81,JURONG WEST,1.34739612,103.6950917
JURONG WEST ST 91,JURONG WEST,1.341937809,103.6899085
JURONG WEST ST 92,JURONG WEST,1.341383458,103.6901778
JURONG WEST ST 93,JURONG WEST,1.338270135,103.6930039
KALLANG BAHRU,KALLANG/WHAMPOA,1.318180493,103.8666464
KANG CHING RD,JURONG WEST,1.339165606,103.7220831
KEAT HONG CL,CHOA CHU KANG,1.374722617,103.7426473
KEAT HONG LINK,CHOA CHU KANG,1.375905813,103.748959
KELANTAN RD,CENTRAL AREA,1.305575442,103.85632
KENT RD,KALLANG/WHAMPOA,1.316292577,103.8521212
KG ARANG RD,KALLANG/WHAMPOA,1.30035142,103.8821945
KG KAYU RD,KALLANG/WHAMPOA,1.30343642,103.8844522
KIM CHENG ST,BUKIT MERAH,1.284762643,103.8319039
KIM KEAT AVE,TOA PAYOH,1.333401865,103.8579887
KIM KEAT LINK,TOA PAYOH,1.331208714,103.8549555
KIM PONG RD,BUKIT MERAH,1.285148148,103.8301769
KIM TIAN PL,BUKIT MERAH,1.283489569,103.8286967
KIM TIAN RD,BUKIT MERAH,1.282613065,103.8277476
KING GEORGE'S AVE,KALLANG/WHAMPOA,1.309067915,103.8606006
KLANG LANE,CENTRAL AREA,1.308535667,103.8523068
KRETA AYER RD,CENTRAL AREA,1.281252317,103.8421525
LENGKOK BAHRU,BUKIT MERAH,1.287083965,103.8136773
LENGKONG TIGA,BEDOK,1.324542988,103.9113949
LIM LIAK ST,BUKIT MERAH,1.285414138,103.8314798
LOMPANG RD,BUKIT PANJANG,1.380083487,103.7655632
LOR 1 TOA PAYOH,TOA PAYOH,1.339847906,103.8481714
LOR 1A TOA PAYOH,TOA PAYOH,1.33715071,103.8447003
LOR 2 TOA PAYOH,TOA PAYOH,1.33617921,103.8463207
LOR 3 GEYLANG,KALLANG/WHAMPOA,1.315124341,103.8730864
LOR 3 TOA PAYOH,TOA PAYOH,1.338289372,103.8479971
LOR 4 TOA PAYOH,TOA PAYOH,1.335682432,103.8508413
LOR 5 TOA PAYOH,TOA PAYOH,1.336602206,103.8526851
LOR 6 TOA PAYOH,TOA PAYOH,1.338299869,103.8534128
LOR 7 TOA PAYOH,TOA PAYOH,1.337546313,103.8564648
LOR 8 TOA PAYOH,TOA PAYOH,1.339901784,103.8565136
LOR AH SOO,HOUGANG,1.351575205,103.8847996
LOR LEW LIAN,SERANGOON,1.350252938,103.8773373
LOR LIMAU,KALLANG/WHAMPOA,1.324234858,103.8550078
LOWER DELTA RD,BUKIT MERAH,1.280753939,103.8238345
MACPHERSON LANE,GEYLANG,1.33209724,103.8852429
MARGARET DR,QUEENSTOWN,1.296971112,103.8083051
MARINE CRES,MARINE PARADE,1.305614776,103.9119743
MARINE DR,MARINE PARADE,1.30375229,103.9090322
MARINE PARADE CTRL,MARINE PARADE,1.302331602,103.9065169
MARINE TER,MARINE PARADE,1.305200837,103.9152774
MARSILING CRES,WOODLANDS,1.448348156,103.7748725
MARSILING DR,WOODLANDS,1.442435906,103.7750644
MARSILING LANE,WOODLANDS,1.44535146,103.7758654
MARSILING RD,WOODLANDS,1.438873157,103.7761594
MARSILING RISE,WOODLANDS,1.439541682,103.7811777
MCNAIR RD,KALLANG/WHAMPOA,1.319683618,103.858086
MEI LING ST,QUEENSTOWN,1.294454242,103.8032205
MOH GUAN TER,BUKIT MERAH,1.284018039,103.8305044
MONTREAL DR,SEMBAWANG,1.451892327,103.8244357
MONTREAL LINK,SEMBAWANG,1.450831054,103.8268814
MOULMEIN RD,KALLANG/WHAMPOA,1.319277871,103.8485032
NEW MKT RD,CENTRAL AREA,1.287338617,103.8446828
NEW UPP CHANGI RD,BEDOK,1.324605106,103.9350566
NTH BRIDGE RD,KALLANG/WHAMPOA,1.294881912,103.8528173
OLD AIRPORT RD,GEYLANG,1.307833411,103.885752
OWEN RD,KALLANG/WHAMPOA,1.314792189,103.8522697
PANDAN GDNS,JURONG EAST,1.320484492,103.7478404
PASIR RIS DR 1,PASIR RIS,1.371191705,103.9488374
PASIR RIS DR 10,PASIR RIS,1.37986131,103.938164
PASIR RIS DR 3,PASIR RIS,1.375077256,103.951678
PASIR RIS DR 4,PASIR RIS,1.373801414,103.9608365
PASIR RIS DR 6,PASIR RIS,1.372224488,103.9567567
PASIR RIS ST 11,PASIR RIS,1.365129337,103.9586131
PASIR RIS ST 12,PASIR RIS,1.36676676,103.958831
PASIR RIS ST 13,PASIR RIS,1.363579634,103.9616641
PASIR RIS ST 21,PASIR RIS,1.368299366,103.9623338
PASIR RIS ST 41,PASIR RIS,1.372946614,103.9587618
PASIR RIS ST 51,PASIR RIS,1.368211488,103.9500957
PASIR RIS ST 52,PASIR RIS,1.374889436,103.9461502
PASIR RIS ST 53,PASIR RIS,1.374236033,103.9469837
PASIR RIS ST 71,PASIR RIS,1.375749936,103.9373131
PASIR RIS ST 72,PASIR RIS,1.380629167,103.9365091
PAYA LEBAR WAY,GEYLANG,1.322960088,103.8835345
PENDING RD,BUKIT PANJANG,1.376473865,103.7711821
PETIR RD,BUKIT PANJANG,1.374936427,103.7709426
PINE CL,GEYLANG,1.308174211,103.8829205
PIPIT RD,GEYLANG,1.323806832,103.8868782
POTONG PASIR AVE 1,TOA PAYOH,1.335131317,103.8670165
POTONG PASIR AVE 2,TOA PAYOH,1.33236771,103.8671313
POTONG PASIR AVE 3,TOA PAYOH,1.333710432,103.8651773
PUNGGOL CTRL,PUNGGOL,1.399511809,103.911158
PUNGGOL DR,PUNGGOL,1.402633278,103.9125114
PUNGGOL EAST,PUNGGOL,1.395335509,103.9164806
PUNGGOL FIELD,PUNGGOL,1.399624609,103.9055961
PUNGGOL FIELD WALK,PUNGGOL,1.392036904,103.9126164
PUNGGOL PL,PUNGGOL,1.403188329,103.9031328
PUNGGOL RD,PUNGGOL,1.395383558,103.9024519
PUNGGOL WALK,PUNGGOL,1.405472113,103.9005014
PUNGGOL WAY,PUNGGOL,1.410644652,103.8998481
QUEEN ST,CENTRAL AREA,1.299660586,103.8534651
QUEEN'S CL,QUEENSTOWN,1.293305021,103.7999302
QUEEN'S RD,BUKIT TIMAH,1.320830188,103.8093023
QUEENSWAY,QUEENSTOWN,1.299651029,103.8009343
RACE COURSE RD,KALLANG/WHAMPOA,1.311871519,103.8530494
REDHILL CL,BUKIT MERAH,1.286753521,103.8170404
REDHILL LANE,BUKIT MERAH,1.288263291,103.8185858
REDHILL RD,BUKIT MERAH,1.287913678,103.8163841
RIVERVALE CRES,SENGKANG,1.391838415,103.907349
RIVERVALE DR,SENGKANG,1.387392356,103.9044878
RIVERVALE ST,SENGKANG,1.38862211,103.9034474
RIVERVALE WALK,SENGKANG,1.38347583,103.9008747
ROWELL RD,CENTRAL AREA,1.308592237,103.8550926
SAGO LANE,CENTRAL AREA,1.281461191,103.8440925
SAUJANA RD,BUKIT PANJANG,1.38256949,103.7670166
SEGAR RD,BUKIT PANJANG,1.388766332,103.7707884
SELEGIE RD,CENTRAL AREA,1.303244116,103.8501254
SEMBAWANG CL,SEMBAWANG,1.447577129,103.8174049
SEMBAWANG CRES,SEMBAWANG,1.444803427,103.8167119
SEMBAWANG DR,SEMBAWANG,1.452734356,103.8169889
SEMBAWANG VISTA,SEMBAWANG,1.447427408,103.8208087
SEMBAWANG WAY,SEMBAWANG,1.448735832,103.8164151
SENG POH RD,BUKIT MERAH,1.285206152,103.8329853
SENGKANG CTRL,SENGKANG,1.38480879,103.8933373
SENGKANG EAST AVE,SENGKANG,1.386863038,103.8934863
SENGKANG EAST RD,SENGKANG,1.390743561,103.8926165
SENGKANG EAST WAY,SENGKANG,1.39250844,103.8966823
SENGKANG WEST AVE,SENGKANG,1.391173984,103.8765348
SENGKANG WEST WAY,SENGKANG,1.395447253,103.8771684
SENJA LINK,BUKIT PANJANG,1.387248481,103.7627263
SENJA RD,BUKIT PANJANG,1.386735078,103.761992
SERANGOON AVE 1,SERANGOON,1.347640831,103.8751198
SERANGOON AVE 2,SERANGOON,1.351702661,103.8699198
SERANGOON AVE 3,SERANGOON,1.351623383,103.8682771
SERANGOON AVE 4,SERANGOON,1.358264673,103.8706899
SERANGOON CTRL,SERANGOON,1.351225405,103.8730237
SERANGOON CTRL DR,SERANGOON,1.354763657,103.8715766
SERANGOON NTH AVE 1,SERANGOON,1.36647638,103.8725934
SERANGOON NTH AVE 2,SERANGOON,1.369209469,103.8749214
SERANGOON NTH AVE 3,SERANGOON,1.373055679,103.8715625
SERANGOON NTH AVE 4,SERANGOON,1.373797055,103.8733486
SHUNFU RD,BISHAN,1.351922005,103.8376231
SILAT AVE,BUKIT MERAH,1.276648108,103.8304991
SIMEI LANE,TAMPINES,1.343463709,103.9584491
SIMEI RD,TAMPINES,1.344640679,103.9576059
SIMEI ST 1,TAMPINES,1.345568128,103.9543872
SIMEI ST 2,TAMPINES,1.344140222,103.9555891
SIMEI ST 4,TAMPINES,1.342204165,103.9559426
SIMEI ST 5,TAMPINES,1.344053697,103.9540435
SIMS AVE,GEYLANG,1.316077071,103.8867349
SIMS DR,GEYLANG,1.318326667,103.8789386
SIMS PL,GEYLANG,1.317236581,103.8799074
SIN MING AVE,BISHAN,1.363444234,103.8360951
SIN MING RD,BISHAN,1.356019383,103.8376589
SMITH ST,CENTRAL AREA,1.282639465,103.8439622
SPOTTISWOODE PK RD,BUKIT MERAH,1.275470518,103.8371932
ST. GEORGE'S LANE,KALLANG/WHAMPOA,1.32255307,103.8617718
ST. GEORGE'S RD,KALLANG/WHAMPOA,1.323296088,103.8623937
STIRLING RD,QUEENSTOWN,1.295366451,103.8043783
STRATHMORE AVE,QUEENSTOWN,1.293779103,103.8099868
SUMANG LANE,PUNGGOL,1.402592655,103.8923918
SUMANG LINK,PUNGGOL,1.410680161,103.9001695
SUMANG WALK,PUNGGOL,1.40837528,103.8959354
TAH CHING RD,JURONG WEST,1.337678187,103.7230735
TAMAN HO SWEE,BUKIT MERAH,1.287924064,103.8319973
TAMPINES AVE 1,TAMPINES,1.346608438,103.9338393
TAMPINES AVE 4,TAMPINES,1.351826135,103.9422857
TAMPINES AVE 5,TAMPINES,1.35050559,103.9416256
TAMPINES AVE 7,TAMPINES,1.35678596,103.9510264
TAMPINES AVE 8,TAMPINES,1.352939138,103.9306378
TAMPINES AVE 9,TAMPINES,1.360363002,103.9432794
TAMPINES CTRL 1,TAMPINES,1.354738512,103.9451767
TAMPINES CTRL 7,TAMPINES,1.358223605,103.9401336
TAMPINES CTRL 8,TAMPINES,1.356728879,103.9405963
TAMPINES ST 11,TAMPINES,1.345696157,103.9469253
TAMPINES ST 12,TAMPINES,1.34992625,103.9451965
TAMPINES ST 21,TAMPINES,1.35169638,103.9489589
TAMPINES ST 22,TAMPINES,1.349367771,103.9509402
TAMPINES ST 23,TAMPINES,1.353927035,103.9533798
TAMPINES ST 24,TAMPINES,1.355521038,103.9517344
TAMPINES ST 32,TAMPINES,1.353906757,103.9579838
TAMPINES ST 33,TAMPINES,1.352276983,103.9601319
TAMPINES ST 34,TAMPINES,1.35595105,103.9601366
TAMPINES ST 41,TAMPINES,1.358992286,103.9490008
TAMPINES ST 42,TAMPINES,1.358680879,103.9523067
TAMPINES ST 43,TAMPINES,1.361365295,103.9520154
TAMPINES ST 44,TAMPINES,1.360213331,103.9537674
TAMPINES ST 45,TAMPINES,1.359286834,103.9578089
TAMPINES ST 61,TAMPINES,1.362830257,103.9370277
TAMPINES ST 71,TAMPINES,1.357846176,103.9333205
TAMPINES ST 72,TAMPINES,1.359483008,103.934552
TAMPINES ST 81,TAMPINES,1.348618668,103.9337714
TAMPINES ST 82,TAMPINES,1.35163555,103.9365655
TAMPINES ST 83,TAMPINES,1.353389338,103.9345068
TAMPINES ST 84,TAMPINES,1.352806857,103.9325004
TAMPINES ST 86,TAMPINES,1.353032557,103.9291417
TAMPINES ST 91,TAMPINES,1.348440806,103.9390604
TANGLIN HALT RD,QUEENSTOWN,1.301618081,103.7979105
TAO CHING RD,JURONG WEST,1.33301608,103.7241654
TEBAN GDNS RD,JURONG EAST,1.32209764,103.7416644
TECK WHYE AVE,CHOA CHU KANG,1.38138721,103.7540626
TECK WHYE CRES,CHOA CHU KANG,1.382853213,103.7529153
TECK WHYE LANE,CHOA CHU KANG,1.379187993,103.7526727
TELOK BLANGAH CRES,BUKIT MERAH,1.277314027,103.820226
TELOK BLANGAH DR,BUKIT MERAH,1.273182801,103.8078455
TELOK BLANGAH HTS,BUKIT MERAH,1.276809239,103.8114023
TELOK BLANGAH RISE,BUKIT MERAH,1.272915492,103.8212495
TELOK BLANGAH ST 31,BUKIT MERAH,1.275354048,103.8068223
TELOK BLANGAH WAY,BUKIT MERAH,1.276061496,103.8191417
TESSENSOHN RD,KALLANG/WHAMPOA,1.315506019,103.8561183
TG PAGAR PLAZA,CENTRAL AREA,1.27572127,103.8430421
TIONG BAHRU RD,BUKIT MERAH,1.285170704,103.8340613
TOA PAYOH CTRL,TOA PAYOH,1.33439281,103.8490167
TOA PAYOH EAST,TOA PAYOH,1.33427968,103.8574545
TOA PAYOH NTH,TOA PAYOH,1.341768306,103.849234
TOH GUAN RD,JURONG EAST,1.336440832,103.7476376
TOH YI DR,BUKIT TIMAH,1.338219735,103.771655
TOWNER RD,KALLANG/WHAMPOA,1.319943877,103.8586913
UBI AVE 1,GEYLANG,1.326428814,103.8981263
UPP ALJUNIED LANE,TOA PAYOH,1.334454817,103.8795145
UPP BOON KENG RD,KALLANG/WHAMPOA,1.314574067,103.8720873
UPP CROSS ST,CENTRAL AREA,1.285690974,103.8433944
UPP SERANGOON CRES,HOUGANG,1.37748771,103.9004326
UPP SERANGOON RD,HOUGANG,1.357894093,103.8824381
UPP SERANGOON VIEW,HOUGANG,1.37495043,103.9030348
VEERASAMY RD,CENTRAL AREA,1.307549585,103.8544126
WATERLOO ST,CENTRAL AREA,1.298928664,103.8515158
WELLINGTON CIRCLE,SEMBAWANG,1.452875929,103.8220961
WEST COAST DR,CLEMENTI,1.313831731,103.759287
WEST COAST RD,CLEMENTI,1.310284203,103.756399
WHAMPOA DR,KALLANG/WHAMPOA,1.32382537,103.8564028
WHAMPOA RD,KALLANG/WHAMPOA,1.326166088,103.8563823
WHAMPOA STH,KALLANG/WHAMPOA,1.324359286,103.8669335
WHAMPOA WEST,KALLANG/WHAMPOA,1.320839503,103.8636507
WOODLANDS AVE 1,WOODLANDS,1.431632281,103.7852149
WOODLANDS AVE 3,WOODLANDS,1.432478487,103.7737576
WOODLANDS AVE 4,WOODLANDS,1.438243702,103.7956662
WOODLANDS AVE 5,WOODLANDS,1.435149753,103.7925266
WOODLANDS AVE 6,WOODLANDS,1.438961831,103.8029436
WOODLANDS AVE 9,WOODLANDS,1.448282676,103.7986462
WOODLANDS CIRCLE,WOODLANDS,1.444667631,103.7981386
WOODLANDS CRES,WOODLANDS,1.446884575,103.802479
WOODLANDS CTR RD,WOODLANDS,1.43794768,103.7710111
WOODLANDS DR 14,WOODLANDS,1.431901802,103.7916418
WOODLANDS DR 16,WOODLANDS,1.430324053,103.7946986
WOODLANDS DR 40,WOODLANDS,1.442299106,103.7960019
WOODLANDS DR 42,WOODLANDS,1.437078453,103.7967305
WOODLANDS DR 44,WOODLANDS,1.431679585,103.7945795
WOODLANDS DR 50,WOODLANDS,1.437125551,103.793678
WOODLANDS DR 52,WOODLANDS,1.434152653,103.7993835
WOODLANDS DR 53,WOODLANDS,1.432382673,103.797162
WOODLANDS DR 60,WOODLANDS,1.447077927,103.7996631
WOODLANDS DR 62,WOODLANDS,1.439490404,103.8054575
WOODLANDS DR 70,WOODLANDS,1.441425431,103.7983112
WOODLANDS DR 71,WOODLANDS,1.439987208,103.8001299
WOODLANDS DR 72,WOODLANDS,1.443523727,103.8044376
WOODLANDS DR 73,WOODLANDS,1.441130753,103.8061064
WOODLANDS DR 75,WOODLANDS,1.441709349,103.8080959
WOODLANDS RING RD,WOODLANDS,1.438752535,103.7993522
WOODLANDS RISE,WOODLANDS,1.447145429,103.8045031
WOODLANDS ST 11,WOODLANDS,1.43358313,103.7757069
WOODLANDS ST 13,WOODLANDS,1.435140157,103.7776007
WOODLANDS ST 31,WOODLANDS,1.430609304,103.7749589
WOODLANDS ST 32,WOODLANDS,1.431018926,103.7801891
WOODLANDS ST 41,WOODLANDS,1.429523258,103.7730734
WOODLANDS ST 81,WOODLANDS,1.441551877,103.7892831
WOODLANDS ST 82,WOODLANDS,1.443478682,103.7914682
WOODLANDS ST 83,WOODLANDS,1.440926853,103.7936957
YISHUN AVE 1,YISHUN,1.417875105,103.8460765
YISHUN AVE 11,YISHUN,1.424780783,103.8447831
YISHUN AVE 2,YISHUN,1.426139958,103.8351252
YISHUN AVE 3,YISHUN,1.423884054,103.8299985
YISHUN AVE 4,YISHUN,1.418773533,103.84071
YISHUN AVE 5,YISHUN,1.430725861,103.8308755
YISHUN AVE 6,YISHUN,1.433154881,103.8452948
YISHUN AVE 7,YISHUN,1.438602353,103.8331371
YISHUN AVE 9,YISHUN,1.434000479,103.8419374
YISHUN CTRL,YISHUN,1.427002886,103.8406624
YISHUN CTRL 1,YISHUN,1.428579154,103.8372761
YISHUN RING RD,YISHUN,1.426161628,103.8320061
YISHUN ST 11,YISHUN,1.432170799,103.8327938
YISHUN ST 20,YISHUN,1.436154481,103.8352862
YISHUN ST 21,YISHUN,1.433250155,103.8367503
YISHUN ST 22,YISHUN,1.437289706,103.8375152
YISHUN ST 31,YISHUN,1.431856159,103.8459868
YISHUN ST 41,YISHUN,1.419631758,103.8454277
YISHUN ST 43,YISHUN,1.425672536,103.8523313
YISHUN ST 51,YISHUN,1.416505831,103.8433886
YISHUN ST 61,YISHUN,1.420786037,103.8376609
YISHUN ST 71,YISHUN,1.427124924,103.8295792
YISHUN ST 72,YISHUN,1.427481903,103.8332548
YISHUN ST 81,YISHUN,1.41527431,103.837315
YUAN CHING RD,JURONG WEST,1.335383369,103.7250768
YUNG AN RD,JURONG WEST,1.336978324,103.7195581
YUNG HO RD,JURONG WEST,1.326858877,103.7226627
YUNG KUANG RD,JURONG WEST,1.331692591,103.7231604
YUNG LOH RD,JURONG WEST,1.327653754,103.7222581
YUNG PING RD,JURONG WEST,1.330112669,103.7221097
YUNG SHENG RD,JURONG WEST,1.334935939,103.7213002
ZION RD,BUKIT MERAH,1.291262638,103.8327392
